[
  {
    "id": "HOSP-001",
    "name": "AIIMS Delhi",
    "city": "Delhi",
    "lat": 28.5672,
    "lng": 77.21,
    "type": "multi-specialty",
    "specialties": ["cardiac", "trauma", "neuro"],
    "occupancy_pct": 68.0,
    "er_wait_minutes": 24,
    "icu_beds_available": 12,
    "total_icu_beds": 20,
    "trauma_support": true,
    "acceptance_score": 0.84,
    "diversion_status": false,
    "incoming_patients": []
  },
  {
    "id": "HOSP-002",
    "name": "Safdarjung Hospital",
    "city": "Delhi",
    "lat": 28.568,
    "lng": 77.2069,
    "type": "trauma",
    "specialties": ["trauma", "ortho", "surgery"],
    "occupancy_pct": 74.0,
    "er_wait_minutes": 28,
    "icu_beds_available": 8,
    "total_icu_beds": 15,
    "trauma_support": true,
    "acceptance_score": 0.76,
    "diversion_status": false,
    "incoming_patients": []
  },
  {
    "id": "HOSP-003",
    "name": "KEM Hospital Mumbai",
    "city": "Mumbai",
    "lat": 19.003,
    "lng": 72.841,
    "type": "multi-specialty",
    "specialties": ["cardiac", "trauma", "pediatric"],
    "occupancy_pct": 72.0,
    "er_wait_minutes": 26,
    "icu_beds_available": 10,
    "total_icu_beds": 18,
    "trauma_support": true,
    "acceptance_score": 0.81,
    "diversion_status": false,
    "incoming_patients": []
  },
  {
    "id": "HOSP-004",
    "name": "Lilavati Hospital",
    "city": "Mumbai",
    "lat": 19.0515,
    "lng": 72.8286,
    "type": "cardiac",
    "specialties": ["cardiac", "neuro", "oncology"],
    "occupancy_pct": 61.0,
    "er_wait_minutes": 19,
    "icu_beds_available": 14,
    "total_icu_beds": 20,
    "trauma_support": false,
    "acceptance_score": 0.88,
    "diversion_status": false,
    "incoming_patients": []
  },
  {
    "id": "HOSP-005",
    "name": "Manipal Bengaluru",
    "city": "Bengaluru",
    "lat": 12.958,
    "lng": 77.648,
    "type": "multi-specialty",
    "specialties": ["cardiac", "trauma", "ortho"],
    "occupancy_pct": 79.0,
    "er_wait_minutes": 31,
    "icu_beds_available": 6,
    "total_icu_beds": 16,
    "trauma_support": true,
    "acceptance_score": 0.73,
    "diversion_status": false,
    "incoming_patients": []
  },
  {
    "id": "HOSP-006",
    "name": "Victoria Hospital",
    "city": "Bengaluru",
    "lat": 12.9634,
    "lng": 77.5739,
    "type": "trauma",
    "specialties": ["trauma", "surgery", "burns"],
    "occupancy_pct": 65.0,
    "er_wait_minutes": 23,
    "icu_beds_available": 9,
    "total_icu_beds": 14,
    "trauma_support": true,
    "acceptance_score": 0.8,
    "diversion_status": false,
    "incoming_patients": []
  },
  {
    "id": "HOSP-007",
    "name": "Apollo Chennai",
    "city": "Chennai",
    "lat": 13.0606,
    "lng": 80.2496,
    "type": "multi-specialty",
    "specialties": ["cardiac", "neuro", "oncology"],
    "occupancy_pct": 70.0,
    "er_wait_minutes": 25,
    "icu_beds_available": 11,
    "total_icu_beds": 18,
    "trauma_support": true,
    "acceptance_score": 0.82,
    "diversion_status": false,
    "incoming_patients": []
  },
  {
    "id": "HOSP-008",
    "name": "Govt. Royapettah",
    "city": "Chennai",
    "lat": 13.0487,
    "lng": 80.2641,
    "type": "general",
    "specialties": ["general", "pediatric", "maternity"],
    "occupancy_pct": 55.0,
    "er_wait_minutes": 18,
    "icu_beds_available": 7,
    "total_icu_beds": 12,
    "trauma_support": false,
    "acceptance_score": 0.78,
    "diversion_status": false,
    "incoming_patients": []
  },
  {
    "id": "HOSP-009",
    "name": "NIMS Hyderabad",
    "city": "Hyderabad",
    "lat": 17.4239,
    "lng": 78.451,
    "type": "multi-specialty",
    "specialties": ["cardiac", "neuro", "trauma"],
    "occupancy_pct": 66.0,
    "er_wait_minutes": 22,
    "icu_beds_available": 13,
    "total_icu_beds": 20,
    "trauma_support": true,
    "acceptance_score": 0.86,
    "diversion_status": false,
    "incoming_patients": []
  },
  {
    "id": "HOSP-010",
    "name": "Yashoda Hospital",
    "city": "Hyderabad",
    "lat": 17.4399,
    "lng": 78.4983,
    "type": "cardiac",
    "specialties": ["cardiac", "oncology", "ortho"],
    "occupancy_pct": 58.0,
    "er_wait_minutes": 17,
    "icu_beds_available": 10,
    "total_icu_beds": 16,
    "trauma_support": false,
    "acceptance_score": 0.87,
    "diversion_status": false,
    "incoming_patients": []
  }
]
